{
"type": "FeatureCollection",
"name": "SKATE SHOPS",
"crs": { "type": "name", "properties": { "name": "urn:ogc:def:crs:OGC:1.3:CRS84" } },
"features": [
{ "type": "Feature", "properties": { "Name": "303 Boards | Boulder", "description": null }, "geometry": { "type": "Point", "coordinates": [ -105.276068, 40.008143 ] } },
{ "type": "Feature", "properties": { "Name": "303 Boards | Denver", "description": null }, "geometry": { "type": "Point", "coordinates": [ -104.969944, 39.739853 ] } },
{ "type": "Feature", "properties": { "Name": "7Twenty Boardshop | Denver", "description": null }, "geometry": { "type": "Point", "coordinates": [ -104.987904, 39.71416 ] } },
{ "type": "Feature", "properties": { "Name": "Anno Domini Skateshop and Manufacturing | Longmont", "description": null }, "geometry": { "type": "Point", "coordinates": [ -105.0825938, 40.1617384 ] } },
{ "type": "Feature", "properties": { "Name": "BC Surf & Sport | Boulder", "description": null }, "geometry": { "type": "Point", "coordinates": [ -105.2579097, 40.0153033 ] } },
{ "type": "Feature", "properties": { "Name": "BC Surf & Sport | Broomfield", "description": null }, "geometry": { "type": "Point", "coordinates": [ -105.131874, 39.9323348 ] } },
{ "type": "Feature", "properties": { "Name": "BC Surf & Sport | Centennial", "description": "Park Meadows Mall" }, "geometry": { "type": "Point", "coordinates": [ -104.8740839, 39.5573506 ] } },
{ "type": "Feature", "properties": { "Name": "BC Surf & Sport | Colorado Springs", "description": "Chapel Hills Mall" }, "geometry": { "type": "Point", "coordinates": [ -104.7965137, 38.9472204 ] } },
{ "type": "Feature", "properties": { "Name": "BC Surf & Sport | Grand Junction", "description": "The Mesa Mall" }, "geometry": { "type": "Point", "coordinates": [ -108.602323, 39.0918053 ] } },
{ "type": "Feature", "properties": { "Name": "BC Surf & Sport | Littleton Â ", "description": "Southwest Plaza Mall" }, "geometry": { "type": "Point", "coordinates": [ -105.0952316, 39.6118286 ] } },
{ "type": "Feature", "properties": { "Name": "Death and Glory Skate Shop | Denver", "description": null }, "geometry": { "type": "Point", "coordinates": [ -104.9996138, 39.7339202 ] } },
{ "type": "Feature", "properties": { "Name": "Emage Network", "description": null }, "geometry": { "type": "Point", "coordinates": [ -105.00725, 39.757271 ] } },
{ "type": "Feature", "properties": { "Name": "Market Skate Shop", "description": null }, "geometry": { "type": "Point", "coordinates": [ -105.076818, 40.578658 ] } },
{ "type": "Feature", "properties": { "Name": "Mountainside Skate Shop", "description": null }, "geometry": { "type": "Point", "coordinates": [ -104.9164135, 38.8574014 ] } },
{ "type": "Feature", "properties": { "Name": "Mutual Friends", "description": null }, "geometry": { "type": "Point", "coordinates": [ -108.565421, 39.066078 ] } },
{ "type": "Feature", "properties": { "Name": "LoCo Skate Shop", "description": null }, "geometry": { "type": "Point", "coordinates": [ -105.1022106, 40.1699007 ] } },
{ "type": "Feature", "properties": { "Name": "Pedal Action BMX", "description": null }, "geometry": { "type": "Point", "coordinates": [ -104.793811, 38.854884 ] } },
{ "type": "Feature", "properties": { "Name": "Pusher BMX", "description": null }, "geometry": { "type": "Point", "coordinates": [ -104.920603, 39.678834 ] } },
{ "type": "Feature", "properties": { "Name": "Ramps and Alleys Skate Shop", "description": null }, "geometry": { "type": "Point", "coordinates": [ -105.9950059, 38.5238459 ] } },
{ "type": "Feature", "properties": { "Name": "Satellite Boardshop", "description": null }, "geometry": { "type": "Point", "coordinates": [ -105.252894, 40.0289294 ] } },
{ "type": "Feature", "properties": { "Name": "Sk8 Ratz Skate Shop", "description": null }, "geometry": { "type": "Point", "coordinates": [ -105.072139, 40.395629 ] } },
{ "type": "Feature", "properties": { "Name": "The Drop Boardshop", "description": null }, "geometry": { "type": "Point", "coordinates": [ -107.8131693, 37.9371765 ] } }
]
}
